{
  "heroStations": [
    {
      "address": "Doluluk oranı: %80",
      "id": "göztepe-herostation",
      "lat": 40.980935,
      "lng": 29.089799,
      "name": "Göztepe HeroStation",
      "region": "europe"
    },
    {
      "address": "Doluluk oranı: %10",
      "id": "üsküdar-herostation",
      "lat": 41.024647, 
      "lng": 29.041844,
      "name": "Üsküdar HeroStation",
      "region": "europe"
    },
    {
      "address": "Doluluk oranı: %25",
      "id": "çamlıca-herostation",
      "lat": 41.036591, 
      "lng": 29.066644,
      "name": "Çamlıca HeroStation",
      "region": "europe"
    },
    {
      "address": "Doluluk oranı: %65",
      "id": "kadıköy-herostation",
      "lat": 40.989844,
      "lng": 29.022629,
      "name": "Kadıköy HeroStation",
      "region": "europe"
    },
    {
      "address": "Doluluk oranı: %50",
      "id": "bomonti-herostation",
      "lat": 41.057440, 
      "lng": 28.986017,
      "name": "Bomonti HeroStation",
      "region": "europe"
    },
    {
      "address": "Doluluk oranı: %30",
      "id": "beşiktaş-herostation",
      "lat": 41.034480,
      "lng": 28.992299,
      "name": "Beşiktaş HeroStation",
      "region": "europe"
    },
    {
      "address": "Doluluk oranı: %20",
      "id": "galata-herostation",
      "lat": 41.024789, 
      "lng": 28.974324,
      "name": "Galata HeroStation",
      "region": "europe"
    },
    {
      "address": "Doluluk oranı: %70",
      "id": "bebek-herostation",
      "lat": 41.077326,
      "lng": 29.038788,
      "name": "Bebek HeroStation",
      "region": "europe"
    }
  ],
  "regions": [
    {
      "coords": {
        "lat": 2.9660291,
        "lng": 1.3271339
      },
      "id": "africa-middle-east",
      "name": "Afrika ve Orta Doğu",
      "zoom": 3.0
    },
    {
      "coords": {
        "lat": 0.0524811,
        "lng": 127.6560787
      },
      "id": "asia-pacific",
      "name": "Asya Pasifik",
      "zoom": 3.0
    },
    {
      "coords": {
        "lat": 46.1352815,
        "lng": 7.4033438
      },
      "id": "europe",
      "name": "Avrupa",
      "zoom": 4.0
    },
    {
      "coords": {
        "lat": -17.5554497,
        "lng": -99.2316195
      },
      "id": "latin-america",
      "name": "Latin Amerika",
      "zoom": 3.0
    },
    {
      "coords": {
        "lat": 45.7128252,
        "lng": -97.1547448
      },
      "id": "north-america",
      "name": "Kuzey Amerika",
      "zoom": 4.0
    }
  ]
}
